{"created_at": 1773668439.1195714, "value": {"query": "公园", "city": "深圳", "tags": [], "count": 7, "results": [{"name": "深圳湾公园", "address": "滨海大道", "city": "深圳市", "lat": "22.518968", "lon": "113.972602", "distance_m": null, "opening_hours": "06:00-23:00", "ticket_price": null, "category": "自然风光", "tags": ["自然风光"], "walk_level": "medium", "popular": "medium", "source": "amap"}, {"name": "红树林海滨生态公园", "address": "滨河大道(深圳湾公园地铁站D2口步行60米)", "city": "深圳市", "lat": "22.522076", "lon": "113.998082", "distance_m": null, "opening_hours": "14:30-18:00", "ticket_price": null, "category": "自然风光", "tags": ["自然风光"], "walk_level": "medium", "popular": "medium", "source": "amap"}, {"name": "深圳湾公园北湾鹭港", "address": "滨海大道深圳湾公园内(西侧)", "city": "深圳市", "lat": "22.518986", "lon": "113.963039", "distance_m": null, "opening_hours": "24小时营业", "ticket_price": null, "category": "自然风光", "tags": ["自然风光"], "walk_level": "medium", "popular": "medium", "source": "amap"}, {"name": "深圳湾公园观桥公园", "address": "望海路附近", "city": "深圳市", "lat": "22.488257", "lon": "113.951988", "distance_m": null, "opening_hours": "24小时营业", "ticket_price": null, "category": "自然风光", "tags": ["自然风光"], "walk_level": "medium", "popular": "medium", "source": "amap"}, {"name": "深圳人才公园", "address": "粤海街道科苑南路3329号", "city": "深圳市", "lat": "22.511353", "lon": "113.946958", "distance_m": null, "opening_hours": "06:00-23:00", "ticket_price": null, "category": "自然风光", "tags": ["自然风光"], "walk_level": "medium", "popular": "medium", "source": "amap"}, {"name": "深圳人才公园人才星光大道", "address": "粤海街道蔚蓝海岸社区科苑南路3329号深圳人才公园(东南角)", "city": "深圳市", "lat": "22.509223", "lon": "113.951021", "distance_m": null, "opening_hours": null, "ticket_price": null, "category": "自然风光", "tags": ["自然风光"], "walk_level": "medium", "popular": "medium", "source": "amap"}, {"name": "大梅沙海滨公园", "address": "梅沙街道盐梅路105号", "city": "深圳市", "lat": "22.592429", "lon": "114.307954", "distance_m": null, "opening_hours": "06:30-23:00", "ticket_price": null, "category": "自然风光", "tags": ["自然风光"], "walk_level": "medium", "popular": "medium", "source": "amap"}], "source": "poi_search_amap", "cache_hit": false}}